"","houseid","cityid","adrnum","street","state","zip","bathnum","bednum","outview","numlvl","yrbuilt","landsz","condtn","housesz","closedt","sellprice","origprice","longitude","latitude"
"1",1,65,"95-208","Hoailona","HI",96789,2,2,"None",1,1993,2820,4,796,2013-06-28,450000,450000,-157.999666,21.472099
"2",2,65,"95-229","Haike","HI",96789,2,2,"None",1,1998,2911,3,850,2014-08-13,525000,400000,-157.9939379,21.4804094
"3",3,65,"95-1007","Puneki","HI",96789,2,2,"Mountain",1,1992,4561,5,1071,2013-06-04,540000,528000,-157.998492,21.463912
"4",4,65,"95-943","Ukuwai","HI",96789,3,3,"Garden",2,2006,1175,5,0,2015-02-11,540000,545000,-158.009391,21.473172
"5",5,65,"95-973","Keehau","HI",96789,3,3,"Mountain,Other",2,2003,3537,3,1385,2013-05-31,550000,496700,-157.9895428,21.4806377
"6",6,65,"95-224","Hoailona","HI",96789,2,3,"Other",1,1993,2880,4,892,2014-08-27,550000,545000,-157.999723,21.472808
"7",7,65,"95-1031","Paepae","HI",96789,2,3,"Mountain",1,2000,2820,5,972,2013-12-13,561000,550000,-157.9877924,21.4761764
"8",8,65,"95-1006","Paea","HI",96789,2,2,"None",1,1998,3313,4,850,2013-10-22,565000,549000,-157.9937483,21.4801253
"9",9,65,"95-1010","Paea","HI",96789,2,3,"Mountain",2,1998,4710,4,1264,2013-07-19,570000,620000,-157.99385,21.48022
"10",10,65,"95-229","Hoailona","HI",96789,2,3,"None",2,1993,3055,5,1080,2013-07-15,570000,578000,-157.9994199,21.4729439
"11",11,65,"95-1043","Hoahui","HI",96789,2,3,"Mountain",1,2000,3252,5,964,2013-08-30,575000,575000,-157.9906455,21.4823805
"12",12,65,"95-1018","Halekua","HI",96789,2,2,"None",1,1998,3264,3,850,2014-06-13,577000,575000,-157.9931925,21.4799896
"13",13,65,"95-1059","Kahakiki","HI",96789,3,3,"None",2,2001,3751,3,1428,2013-09-10,580000,589000,-157.982474,21.4814839
"14",14,65,"95-233","Haike","HI",96789,3,3,"Garden,Mountain,Ocean",2,1998,4924,4,1356,2013-07-15,580000,568000,-157.9938212,21.4804795
"15",15,65,"95-1046","Puuanu","HI",96789,3,3,"Mountain,Ocean",2,2002,4633,4,1254,2013-07-31,590000,610000,-157.9897734,21.4794669
"16",16,65,"95-1032","Aelike","HI",96789,2,3,"None",2,1993,4355,3,1080,2014-10-24,590000,575000,-158.00207,21.472851
"17",17,65,"95-1232","Moea","HI",96789,2,3,"Mountain,Sunset",1,2004,2805,5,968,2015-04-29,590000,610000,-158.0043642,21.4765296
"18",18,65,"95-1017","Aelike","HI",96789,2,3,"None",2,1993,4692,3,1080,2014-09-19,599000,599000,-158.00158,21.47224
"19",19,65,"95-218","Kahele","HI",96789,3,3,"City,Mountain",2,1993,2820,5,1080,2015-03-16,601000,625000,-158.000751,21.472817
"20",20,65,"95-1081","Kahakiki","HI",96789,3,3,"Other,Sunrise,Sunset",3,2001,3750,5,1560,2013-05-31,610000,599000,-157.981471,21.481706
"21",21,65,"95-218","Ahohui","HI",96789,2,3,"None",2,2000,4089,5,1310,2013-06-26,610000,578000,-157.9909832,21.4814532
"22",22,65,"95-220","Puakai","HI",96789,2,3,"Mountain",2,1998,2692,4,1264,2015-02-04,615000,639000,-157.9921468,21.4810905
"23",23,65,"95-1036","Puuanu","HI",96789,3,3,"Ocean",2,2002,4582,4,1254,2014-01-30,618000,598000,-157.990144,21.4793935
"24",24,65,"95-207","Puneki","HI",96789,3,3,"Garden,Mountain",2,1992,4666,4,1407,2013-05-31,620000,620000,-157.9980349,21.463175
"25",25,65,"95-1047","Hoahui","HI",96789,2,3,"Mountain",2,2000,3686,5,1310,2013-10-30,620000,625000,-157.9904828,21.4824102
"26",26,65,"95-2068","Puukaa","HI",96789,3,3,"None",2,2003,3102,4,1254,2014-08-25,625000,599000,-157.988213,21.4788669
"27",27,65,"95-1023","Aahu","HI",96789,3,3,"Mountain,Ocean,Other,Sunset",2,2002,3196,4,1628,2014-02-11,635000,725000,-157.9912514,21.4779601
"28",28,65,"95-1080","Halekua","HI",96789,2,3,"None",2,1998,3357,5,1265,2014-05-16,635000,659000,-157.9918456,21.4808889
"29",29,65,"95-214","AAHU","HI",96789,2,3,"Garden,Mountain",2,1996,4395,5,1144,2014-06-10,635000,625000,-157.992106,21.479264
"30",30,65,"95-1059","Puukoa","HI",96789,3,3,"Mountain",2,2002,3437,4,1254,2014-07-25,635000,628000,-157.988165,21.4780917
"31",31,65,"95-1228","Moea","HI",96789,3,3,"None",2,2004,2530,5,1614,2014-06-27,635000,630000,-158.0043853,21.4767209
"32",32,65,"95-1045","Kopalani","HI",96789,2,3,"Garden,Mountain,Other",1,1995,5170,5,1020,2014-01-23,639000,629000,-158.000128,21.477067
"33",33,65,"95-1034","Akeake","HI",96789,2,3,"None",2,1993,4607,4,1477,2013-10-16,640000,640000,-157.9935115,21.4664993
"34",34,65,"95-1044","Pakau","HI",96789,4,3,"None",1,1992,4600,5,1398,2014-04-07,640000,650000,-157.9936914,21.4680296
"35",35,65,"95-2000","Puukaa","HI",96789,3,3,"Other",2,2002,3453,5,1254,2014-11-12,642000,645000,-157.9910966,21.4782405
"36",36,65,"95-1039","Palamoa","HI",96789,3,4,"Mountain",2,2001,3800,5,1529,2013-08-30,645000,660000,-157.986856,21.478118
"37",37,65,"95-1061","Puulu","HI",96789,2,3,"Garden",1,1992,4998,4,1226,2014-05-14,645000,650000,-157.9920799,21.467197
"38",38,65,"95-206","Ululele","HI",96789,3,3,"Mountain",2,1995,9622,3,1416,2015-04-30,645000,760000,-157.99899,21.479313
"39",39,65,"95-1037","Hololani","HI",96789,2,3,"Mountain,Sunset",1,1998,5301,5,1496,2013-05-30,649000,649000,-158.0012099,21.479678
"40",40,65,"95-1035","Mahelu","HI",96789,3,3,"Garden",2,2004,3445,5,1369,2013-06-28,650000,670000,-157.982496,21.480427
"41",41,65,"95-1009","LOLELAU","HI",96789,2,3,"Garden,Mountain",1,2003,6912,3,1570,2013-10-25,650000,630000,-157.984849,21.476718
"42",42,65,"95-1079","Kopalani","HI",96789,2,3,"None",1,1995,5401,5,1020,2014-05-14,650000,640000,-157.999047,21.478047
"43",43,65,"95-205","Ahunalii","HI",96789,3,3,"Mountain",2,1996,4116,5,1364,2014-07-18,650000,629000,-157.991595,21.480097
"44",44,65,"95-1024","Ohi","HI",96789,2,3,"Mountain",2,1995,6968,4,1134,2014-12-12,650000,660000,-158.000257,21.477528
"45",45,65,"95-230","Halepule","HI",96789,3,3,"None",2,2004,2879,4,1224,2015-01-29,650000,689000,-157.9831094,21.4805544
"46",46,65,"95-1054","Halekia","HI",96789,3,3,"Other",2,2000,8292,5,1428,2013-09-18,653000,649888,-157.9876998,21.4815759
"47",47,65,"95-1022","Akeake","HI",96789,3,4,"None",2,1992,4720,3,1777,2014-09-12,653000,660000,-157.993822,21.466884
"48",48,65,"95-1015","Paepae","HI",96789,3,3,"Garden,Mountain,Sunset",2,2001,2818,4,1614,2014-02-27,655000,639500,-157.9880528,21.4768027
"49",49,65,"95-1118","Halekua","HI",96789,3,3,"None",2,1999,4238,5,1356,2014-07-17,655000,665000,-157.990305,21.4815291
"50",50,65,"95-1030","Puukoa","HI",96789,3,4,"Mountain,Sunset",2,2002,3475,4,1529,2015-03-23,655000,705000,-157.9895012,21.4784289
"51",51,65,"95-1015","Pahaku","HI",96789,3,3,"None",2,2000,4361,4,1584,2013-08-30,656000,695000,-157.996301,21.480743
"52",52,65,"95-202","Puneki","HI",96789,2,3,"None",2,1992,6591,3,1477,2014-03-19,659000,659000,-157.998468,21.46312
"53",53,65,"95-214","Kaela","HI",96789,4,4,"Mountain",2,2003,4308,4,1673,2013-06-19,660000,655000,-157.9885591,21.4804171
"54",54,65,"95-218","Kuikepa","HI",96789,3,3,"None",2,1995,5670,4,1416,2013-10-18,660000,675000,-157.999809,21.478061
"55",55,65,"95-1019","Hoakua","HI",96789,3,4,"None",2,2000,3275,5,1529,2014-08-21,660000,670000,-157.9868926,21.4770064
"56",56,65,"95-1083","Puuanu","HI",96789,3,3,"Garden,Mountain",2,2003,2846,5,1614,2014-04-04,665000,664900,-157.9880717,21.4790069
"57",57,65,"95-1048","Hoahui","HI",96789,3,3,"Mountain,Sunset",2,2000,4914,5,1580,2014-05-09,665000,665000,-157.9905404,21.4827472
"58",58,65,"95-210","Mahelu","HI",96789,3,3,"Mountain",2,2004,3091,4,1587,2014-04-24,670000,679000,-157.982496,21.480427
"59",59,65,"95-1009","Moha","HI",96789,3,3,"None",2,2004,3061,4,1369,2015-03-27,670000,665000,-158.005934,21.4765507
"60",60,65,"95-202","Kaukini","HI",96789,3,4,"Mountain",2,2003,4132,4,1529,2015-01-29,674444,699000,-157.9878645,21.4807558
"61",61,65,"95-1219","MEHEU","HI",96789,3,3,"Coastline,Mountain,Ocean",2,2000,4131,5,1378,2013-10-09,675000,675000,-157.9950086,21.4808927
"62",62,65,"95-1009","Moohele","HI",96789,2,3,"Other",1,2006,4400,5,1481,2014-05-30,676000,689000,-158.010518,21.474219
"63",63,65,"95-1030","Palamoa","HI",96789,3,3,"Garden,Other",2,2001,4361,5,1529,2013-11-22,677000,655000,-157.9872607,21.4778958
"64",64,65,"95-1010","Kekahi","HI",96789,3,4,"Mountain,Other",2,2002,2850,5,1529,2014-08-22,677000,679500,-157.989477,21.477516
"65",65,65,"95-1059","Kahakiki","HI",96789,3,3,"None",2,2001,3749,4,1428,2015-04-30,680000,700000,-157.982474,21.4814839
"66",66,65,"95-1032","Hoakua","HI",96789,3,3,"Garden,Other",1,2001,3226,5,1385,2015-04-10,680000,670000,-157.9868893,21.4775134
"67",67,65,"95-1089","Paalii","HI",96789,3,3,"Mountain,Ocean",2,2003,2994,4,1614,2015-04-02,681000,700000,-157.9885143,21.4795299
"68",68,65,"95-1105","Paalii","HI",96789,3,4,"Coastline,Mountain",2,2003,3378,5,1529,2014-05-02,682000,669000,-157.9878865,21.4794859
"69",69,65,"95-1046","Paepae","HI",96789,3,4,"Garden",2,2000,5419,4,1735,2013-10-25,685000,699000,-157.987244,21.4757811
"70",70,65,"95-1015","Moha","HI",96789,3,4,"Garden,Mountain,Sunset",2,2004,4513,5,1513,2013-10-11,685000,680000,-158.00577,21.4763349
"71",71,65,"95-1037","Paepae","HI",96789,3,4,"Garden,Mountain",2,2000,2820,5,1529,2014-08-29,685000,682000,-157.9876714,21.4759506
"72",72,65,"95-1038","Aliana","HI",96789,3,3,"Mountain,Sunset",2,2004,3055,5,1369,2014-10-22,685000,680000,-157.983496,21.479905
"73",73,65,"95-1018","Hoalumi","HI",96789,3,3,"Mountain,Ocean,Sunrise",2,2001,4980,5,1529,2013-12-20,687000,685000,-157.9865006,21.4787372
"74",74,65,"95-1010","Ahikao","HI",96789,2,3,"None",1,1991,5149,3,1412,2015-05-07,688000,703000,-157.999733,21.465856
"75",75,65,"95-1012","Kahonua","HI",96789,3,2,"None",2,1992,4720,5,2108,2013-08-30,689000,639000,-157.9933419,21.4672358
"76",76,65,"95-325","Laipu","HI",96789,2,3,"Mountain",1,2005,5592,4,1481,2014-09-25,689000,728000,-158.0046896,21.4764076
"77",77,65,"95-1030","Hakala","HI",96789,2,3,"Garden",2,1992,4907,4,1477,2015-03-18,690000,700000,-157.9973577,21.4645037
"78",78,65,"95-1217","Laipu","HI",96789,3,3,"Mountain,Sunrise,Sunset",2,2004,2944,4,1587,2014-06-02,695000,725000,-158.0049826,21.4761538
"79",79,65,"95-1013","Haulelau","HI",96789,2,3,"None",1,2004,4485,5,1481,2014-06-18,700000,718000,-157.978184,21.480435
"80",80,65,"95-202","Melekai","HI",96789,3,4,"Mountain",2,2005,6517,5,1530,2013-08-30,705000,699900,-158.008759,21.475976
"81",81,65,"95-1024","Lahui","HI",96789,3,3,"None",2,1992,5114,4,1407,2014-10-03,705000,720000,-157.995185,21.463081
"82",82,65,"95-211","Kuauna","HI",96789,2,3,"Mountain",1,1997,5200,4,1504,2014-02-28,707000,719000,-158.004276,21.478231
"83",83,65,"95-1032","Aliana","HI",96789,3,3,"Mountain,Ocean,Sunrise",2,2004,3202,5,1513,2014-10-28,707500,749900,-157.983496,21.479905
"84",84,65,"95-232","Haleleka","HI",96789,3,4,"None",2,2004,2886,5,1513,2014-12-19,707500,749000,-157.982496,21.480427
"85",85,65,"95-203","Kuanoni","HI",96789,3,3,"Mountain",2,1995,5556,4,1368,2014-09-05,710000,710000,-157.997083,21.477769
"86",86,65,"95-1045","Kahakiki","HI",96789,3,4,"Garden",2,2001,3750,5,1768,2015-03-06,710000,699000,-157.978187,21.479333
"87",87,65,"95-1031","Mahelu","HI",96789,3,3,"Garden",2,2004,3445,4,1587,2014-09-02,715000,715000,-157.982496,21.480427
"88",88,65,"95-995","Keehau","HI",96789,3,3,"Coastline,Garden,Mountain",2,2003,3824,5,1614,2014-12-17,715000,710000,-157.989466,21.4798874
"89",89,65,"95-1022","Kahakiki","HI",96789,3,3,"Other,Sunrise",2,2001,5173,4,1560,2014-10-31,716000,697000,-157.984138,21.4815
"90",90,65,"95-1009","Haakualiki","HI",96789,3,3,"Mountain,Sunset",2,1997,5200,3,1971,2013-12-30,725000,749000,-158.003507,21.4785049
"91",91,65,"95-209","Iimi","HI",96789,3,3,"Mountain",2,1995,5389,4,1416,2015-05-15,727000,718000,-158.00138,21.477027
"92",92,65,"95-1053","Halekia","HI",96789,3,3,"None",2,2000,8560,4,1560,2013-11-25,728000,749000,-157.987722,21.4812629
"93",93,65,"95-1029","Mahea","HI",96789,2,3,"None",1,2005,4687,5,1481,2014-06-20,728700,728000,-157.979758,21.480872
"94",94,65,"95-1028","ANOPILI","HI",96789,3,4,"None",2,2004,3598,5,2166,2014-01-29,730000,730000,-157.981374,21.480973
"95",95,65,"95-1045","Pahaku","HI",96789,3,3,"None",2,2000,4000,5,1584,2014-12-09,730000,739000,-157.995214,21.481483
"96",96,65,"95-213","Moelehua","HI",96789,3,4,"None",2,2006,4240,5,2163,2014-10-01,732000,800000,-158.0115889,21.474471
"97",97,65,"95-1060","Auina","HI",96789,3,3,"Garden",2,1995,6154,5,1556,2013-07-31,739000,739000,-157.9981054,21.4773948
"98",98,65,"95-1091","Melekomo","HI",96789,3,4,"None",2,2006,3952,5,1919,2013-09-13,740000,745000,-158.010998,21.4733433
"99",99,65,"95-1147","Laipu","HI",96789,3,4,"Other",2,2005,4160,3,2163,2014-04-15,740000,785000,-158.007315,21.474284
"100",100,65,"95-1020","Moohele","HI",96789,3,3,"Garden,Mountain",2,2006,4680,4,1874,2013-08-23,742888,749888,-158.010518,21.474219
"101",101,65,"95-1001","Meanui","HI",96789,2,3,"Garden",1,1991,6508,5,1412,2013-09-04,745000,749000,-157.997774,21.468374
"102",102,65,"95-1017","Kahualea","HI",96789,2,3,"None",1,1993,5100,5,1630,2014-07-21,750000,740000,-157.992097,21.470127
"103",103,65,"95-1030","Meakino","HI",96789,3,3,"Mountain",2,2005,5616,5,1522,2013-09-18,755000,749000,-158.006587,21.475338
"104",104,65,"95-1085","Kihene","HI",96789,3,4,"Mountain",2,2002,5001,5,1845,2013-06-06,759000,799000,-157.983924,21.475511
"105",105,65,"95-1118","Auina","HI",96789,3,4,"Garden",2,1995,7564,4,2006,2014-01-28,759000,749000,-157.995912,21.47881
"106",106,65,"95-1039","Meapa","HI",96789,3,3,"Mountain",2,2005,4160,5,1808,2013-06-03,760000,749000,-158.005909,21.474628
"107",107,65,"95-1004","Ailona","HI",96789,2,3,"None",1,1993,9395,5,1412,2014-01-24,760000,750000,-157.994152,21.472618
"108",108,65,"95-204","Moohele","HI",96789,3,4,"Mountain,Sunrise",2,2006,4160,5,2064,2013-07-03,765000,760000,-158.010518,21.474219
"109",109,65,"95-1007","Meakino","HI",96789,3,3,"Mountain,Sunrise,Sunset",2,2005,5124,5,1808,2013-07-30,765000,765000,-158.007327,21.475946
"110",110,65,"95-1011","Kowa","HI",96789,3,3,"None",2,1993,5400,5,1854,2014-05-02,765000,759000,-157.993927,21.4727849
"111",111,65,"95-1069","Pikokea","HI",96789,3,4,"Garden",2,2003,4348,4,1765,2014-05-23,770000,765000,-157.9843909,21.476366
"112",112,65,"95-215","Kuauna","HI",96789,3,3,"Mountain,Sunset",2,1997,5200,5,2023,2013-07-31,775000,775000,-158.004171,21.478125
"113",113,65,"95-1004","Ahikao","HI",96789,3,3,"Mountain",2,1991,7464,4,2330,2013-11-08,775000,835900,-157.99997,21.46608
"114",114,65,"95-1056","Kahualea","HI",96789,3,4,"Mountain",2,1993,5772,5,2043,2013-07-19,778000,778000,-157.9906767,21.4691857
"115",115,65,"95-214","Malielie","HI",96789,3,3,"None",2,1993,6209,5,2220,2013-09-17,779000,799000,-157.9920884,21.4690432
"116",116,65,"95-1007","Haakualiki","HI",96789,3,3,"None",2,1997,5190,5,1921,2014-01-31,779000,779000,-158.003612,21.47861
"117",117,65,"95-1039","Hookowa","HI",96789,3,4,"None",2,1997,5201,4,2023,2013-08-02,780000,788000,-158.004135,21.477042
"118",118,65,"95-1240","Ahoka","HI",96789,3,3,"Mountain",2,2003,5045,5,1845,2014-03-28,780000,768000,-157.979763,21.483083
"119",119,65,"95-1052","Mahea","HI",96789,3,3,"None",2,2005,4933,5,2130,2014-06-27,782000,829000,-157.979758,21.480872
"120",120,65,"95-1065","Melekomo","HI",96789,3,3,"Garden,Mountain,Sunrise",2,2006,5664,5,1808,2014-10-23,785000,825000,-158.0120232,21.47384
"121",121,65,"95-1026","Kamalino","HI",96789,3,4,"Garden",2,1999,5100,5,2634,2013-08-14,786000,829900,-157.9989625,21.480228
"122",122,65,"95-228","KUAUNA","HI",96789,3,3,"Mountain",2,1997,6937,5,2023,2014-08-14,786000,780000,-158.0034049,21.477974
"123",123,65,"95-1140","Kihene","HI",96789,3,4,"Mountain,Ocean",2,2002,5654,5,1953,2013-07-01,787500,799000,-157.98343,21.477668
"124",124,65,"95-1033","Kowa","HI",96789,3,4,"None",2,1993,5079,4,2314,2014-08-28,788000,799000,-157.993196,21.472296
"125",125,65,"95-1029","Keni","HI",96789,3,3,"Mountain",2,2003,5850,5,2001,2013-06-28,789000,789900,-157.979647,21.481964
"126",126,65,"95-1029","Hoalia","HI",96789,3,3,"Other",2,2003,4646,4,1845,2015-04-17,789000,799000,-157.985041,21.476827
"127",127,65,"95-1068","Hoailona","HI",96789,3,3,"Garden",2,1993,6978,5,1840,2015-02-27,789000,785000,-158.000036,21.474696
"128",128,65,"95-1116","Kihene","HI",96789,3,4,"Mountain",2,2002,5604,4,2211,2013-08-20,790000,799900,-157.983526,21.476754
"129",129,65,"95-1077","Kihene","HI",96789,3,3,"Mountain,Sunset",2,2002,5000,4,1960,2014-07-14,790500,785000,-157.984118,21.475297
"130",130,65,"95-1392","Lehiwa","HI",96789,3,4,"Other",2,2001,5500,5,2128,2014-09-22,798800,798800,-157.9854049,21.482304
"131",131,65,"95-1053","Meanui","HI",96789,3,4,"Mountain",2,1991,6337,5,2330,2014-05-16,799000,820538,-157.9968489,21.4666961
"132",132,65,"95-202","Kuinehe","HI",96789,3,3,"None",2,1999,6507,5,2100,2014-06-02,799000,799000,-157.9946395,21.4788752
"133",133,65,"95-1077","Kopalani","HI",96789,3,4,"Garden,Mountain,Other",2,1995,6169,5,1962,2014-08-07,799000,799000,-157.999126,21.47791
"134",134,65,"95-205","Ainakuai","HI",96789,3,3,"Garden",2,1991,7151,4,1875,2014-05-09,800000,818000,-157.995209,21.4696779
"135",135,65,"95-215","Mua","HI",96789,3,5,"Mountain",2,1992,5009,5,2303,2014-10-17,800000,849000,-157.996209,21.462869
"136",136,65,"95-1042","Kamalino","HI",96789,3,5,"City,Mountain",2,1999,5400,4,2001,2014-12-03,800000,819000,-157.998133,21.4803998
"137",137,65,"95-1018","Haulelau","HI",96789,3,3,"None",2,2004,5471,4,2004,2015-01-30,800000,799000,-157.978184,21.480435
"138",138,65,"95-216","Pahala","HI",96789,3,3,"Mountain,Other",2,2000,6854,5,1724,2014-08-29,803000,765000,-157.9864946,21.4767921
"139",139,65,"95-1037","Mahea","HI",96789,3,4,"Mountain,Ocean,Sunset",2,2005,4633,5,2163,2013-06-14,815000,839000,-157.979758,21.480872
"140",140,65,"95-319","Hookowa","HI",96789,3,3,"None",1,1997,7338,5,1814,2014-09-24,815000,825000,-158.002751,21.477318
"141",141,65,"95-1021","Melekomo","HI",96789,3,3,"None",1,2006,6201,5,2108,2015-03-27,815000,870000,-158.013772,21.474551
"142",142,65,"95-1018","Moohele","HI",96789,3,4,"Mountain",2,2006,4680,5,2163,2013-10-08,818000,820000,-158.010518,21.474219
"143",143,65,"95-1036","Mahea","HI",96789,3,3,"Mountain,Ocean,Sunset",2,2005,5561,5,2024,2013-08-23,820000,835000,-157.979758,21.480872
"144",144,65,"95-1011","Halepakui","HI",96789,3,4,"None",2,2005,3962,4,2274,2014-04-04,820000,820000,-157.981374,21.480973
"145",145,65,"95-1001","Aoakua","HI",96789,3,3,"Other",1,1993,6593,4,2019,2014-07-25,820000,840000,-157.993661,21.473627
"146",146,65,"95-1031","Haakualiki","HI",96789,2,3,"Mountain",1,1997,5700,5,1748,2013-10-18,823000,792000,-158.002835,21.47783
"147",147,65,"95-1029","Meakino","HI",96789,3,4,"Mountain",2,2005,5184,5,2163,2013-10-28,825000,829000,-158.006884,21.475091
"148",148,65,"95-204","Pahaku","HI",96789,3,4,"Garden,Mountain,Ocean,Other,Sunrise,Sunset",2,2000,5609,5,1971,2013-06-07,827000,839999,-157.996047,21.481761
"149",149,65,"95-1032","Ailona","HI",96789,3,3,"Garden,Mountain,Sunset",2,1993,5200,4,2043,2014-02-28,829000,839000,-157.9939039,21.471518
"150",150,65,"95-1144","Ahokele","HI",96789,3,4,"Mountain",2,2001,5200,5,2246,2013-08-23,830000,849900,-157.990208,21.48336
"151",151,65,"95-201","Kemu","HI",96789,3,3,"None",2,2001,6281,5,2217,2013-10-02,835000,859000,-157.981762,21.483057
"152",152,65,"95-203","Ainakuai","HI",96789,3,4,"Other",2,1991,7176,4,2330,2014-06-19,835000,830000,-157.995092,21.469839
"153",153,65,"95-1241","Ahoka","HI",96789,3,4,"Mountain",2,2003,5450,4,2103,2014-09-10,835000,849900,-157.979654,21.482681
"154",154,65,"95-1005","Oliliko","HI",96789,3,3,"Garden,Mountain",2,1993,5445,4,2208,2014-10-15,842000,829000,-157.993006,21.473909
"155",155,65,"95-1062","Kamalino","HI",96789,3,5,"None",2,1999,8691,4,2001,2014-12-08,845000,850000,-157.997288,21.480539
"156",156,65,"95-1013","Kelakela","HI",96789,3,3,"Garden",1,2006,5500,4,2108,2014-12-04,848000,877000,-158.0094499,21.476059
"157",157,65,"95-1033","Hoama","HI",96789,3,3,"None",1,2004,6059,4,2036,2014-08-21,850000,885000,-157.9813969,21.479162
"158",158,65,"95-215","Milia","HI",96789,3,3,"Garden,Mountain",2,1991,7964,4,2275,2014-06-06,855000,915000,-157.996229,21.4685549
"159",159,65,"95-1161","Anuanu","HI",96789,3,4,"None",2,2001,5201,5,2830,2013-07-30,860000,850000,-157.987687,21.483146
"160",160,65,"95-1116","Kihene","HI",96789,3,4,"Mountain,Sunset",2,2002,5604,4,2211,2015-03-16,860000,860000,-157.983526,21.476754
"161",161,65,"95-1037","Kihene","HI",96789,3,4,"None",2,2002,5701,5,2211,2015-05-01,860000,880000,-157.985343,21.4740119
"162",162,65,"95-1021","Kahanui","HI",96789,3,4,"Mountain,Sunrise,Sunset",2,1998,7790,5,2796,2013-07-26,865000,860000,-158.002231,21.480348
"163",163,65,"95-230","Kaeolau","HI",96789,3,4,"Mountain",2,2003,5514,5,2287,2013-11-29,865000,875000,-157.9881119,21.4730828
"164",164,65,"95-1018","Hakala","HI",96789,2,4,"Garden,Mountain",2,1992,6531,5,2248,2014-09-05,865000,875000,-157.9978109,21.4646993
"165",165,65,"95-1010","Kahakuhi","HI",96789,3,4,"Mountain",2,2005,5103,5,2271,2015-04-08,873000,949000,-157.979746,21.479428
"166",166,65,"95-1025","Keni","HI",96789,4,4,"Other",2,2003,5850,4,2357,2014-08-07,874500,879500,-157.979788,21.481934
"167",167,65,"95-1007","Meanui","HI",96789,4,4,"Mountain",2,1991,9573,5,2913,2014-02-18,879000,949000,-157.997868,21.468264
"168",168,65,"95-202","Hoahele","HI",96789,3,3,"Mountain",2,2000,5519,5,2366,2014-07-31,880000,990000,-157.996772,21.481698
"169",169,65,"95-316","Haakualiki","HI",96789,3,3,"Mountain",2,1997,6156,5,1921,2015-04-10,880000,925000,-158.0020429,21.478288
"170",170,65,"95-1045","Kahakuhi","HI",96789,3,3,"None",2,2005,5602,5,2497,2013-07-19,888000,888000,-157.979996,21.479297
"171",171,65,"95-1002","Kowa","HI",96789,3,4,"Mountain,Sunset",2,1995,9295,5,2314,2014-08-01,889000,924000,-157.993961,21.473319
"172",172,65,"95-1060","Haalilo","HI",96789,3,3,"Other",2,2003,5910,5,2102,2014-05-07,890000,970000,-157.9886946,21.4728855
"173",173,65,"95-210","Halelau","HI",96789,3,4,"Garden,Mountain",2,2000,5756,5,2258,2014-06-20,895000,899000,-157.991655,21.482892
"174",174,65,"95-959","Kelakela","HI",96789,3,4,"Garden",2,2006,5855,5,2401,2014-10-29,899000,938000,-158.011527,21.4749139
"175",175,65,"95-1015","Ahea","HI",96789,3,4,"Sunrise,Sunset",2,1991,5100,5,2454,2015-01-14,899000,915000,-157.9979789,21.465775
"176",176,65,"95-1009","Kahakuhi","HI",96789,3,4,"None",2,2005,6859,5,2532,2013-08-23,900000,929000,-157.9798209,21.478961
"177",177,65,"95-1043","Kelakela","HI",96789,3,3,"Mountain",2,2006,7152,5,2401,2014-03-25,900000,919000,-158.0082476,21.4764037
"178",178,65,"95-211","Lilii","HI",96789,3,4,"Mountain",2,1991,9867,4,2330,2014-11-20,900000,969000,-157.996036,21.464861
"179",179,65,"95-214","Melekai","HI",96789,3,4,"Garden",2,2005,7413,3,2163,2015-01-14,915000,929000,-158.008537,21.475667
"180",180,65,"95-980","Kelakela","HI",96789,3,4,"Garden,Mountain,Sunset",2,2006,5870,5,2532,2013-07-03,919000,939900,-158.01104,21.475789
"181",181,65,"95-204","Pahiku","HI",96789,3,4,"Garden,Sunset",2,2003,6655,4,2287,2014-05-09,920000,949000,-157.982349,21.476309
"182",182,65,"95-1036","Kahakuhi","HI",96789,3,3,"None",2,2005,5500,5,2806,2014-07-25,920000,929999,-157.979996,21.479297
"183",183,65,"95-206","Inana","HI",96789,4,5,"Other",2,2005,5647,5,3516,2013-10-18,925000,985000,-157.977835,21.478558
"184",184,65,"95-1109","Kualapa","HI",96789,3,3,"Garden",2,1994,10728,4,2351,2013-06-10,925000,925000,-157.991902,21.465935
"185",185,65,"95-1087","Kualapa","HI",96789,3,3,"Mountain,Ocean,Other",2,1994,7194,5,2590,2013-06-06,930000,987000,-157.992723,21.465437
"186",186,65,"95-228","KAPANOE","HI",96789,3,3,"Garden",2,2004,5238,5,2119,2014-01-10,937500,975000,-157.9800799,21.483986
"187",187,65,"95-209","Hainole","HI",96789,3,3,"Garden,Sunrise,Sunset",1,2006,5700,5,2108,2015-04-15,937750,929500,-157.977256,21.479957
"188",188,65,"95-1086","Loea","HI",96789,3,4,"Mountain,Other,Sunset",2,2003,5883,5,2939,2014-11-14,945000,950000,-157.982929,21.4763449
"189",189,65,"95-942","Kelakela","HI",96789,3,4,"Mountain",2,2006,8438,5,2808,2014-05-16,950000,1058000,-158.012344,21.475146
"190",190,65,"95-214","Melekomo","HI",96789,3,3,"Garden,Mountain,Sunrise,Sunset",2,2006,9445,4,2673,2014-10-02,950000,950000,-158.013143,21.475331
"191",191,65,"95-1112","Auina","HI",96789,4,5,"Garden,Mountain",2,1995,11462,5,2603,2013-06-13,955000,955000,-157.99625,21.479007
"192",192,65,"95-216","Hainole","HI",96789,3,4,"Garden,Other",2,2006,5532,4,2803,2014-07-15,960000,1088000,-157.9767235,21.4798938
"193",193,65,"95-200","KAEONUI","HI",96789,3,4,"Sunset",2,2003,7499,5,2567,2014-07-03,960000,949999,-157.982326,21.477038
"194",194,65,"95-223","Kaeolau","HI",96789,3,4,"Mountain,Ocean",2,2003,7070,5,2401,2014-01-09,970000,998000,-157.9872509,21.473198
"195",195,65,"95-1024","Hoama","HI",96789,3,4,"Mountain,Other,Sunset",2,2005,7523,5,3094,2013-11-07,972000,975000,-157.981977,21.479352
"196",196,65,"95-1122","Anuanu","HI",96789,3,3,"Garden,Mountain,Sunset",2,2001,8775,4,2890,2014-04-25,981750,1234000,-157.989439,21.48342
"197",197,65,"95-210","Hainole","HI",96789,3,4,"Garden,Mountain,Other",2,2006,5532,5,2803,2015-01-14,990000,1024990,-157.976821,21.48012
"198",198,65,"95-1002","Ahulili","HI",96789,3,5,"None",2,1998,7178,5,2777,2014-11-24,1000000,989000,-158.000245,21.481275
"199",199,65,"95-1040","Hehina","HI",96789,3,5,"None",2,2005,6760,5,3094,2014-12-19,1000000,1059000,-157.979277,21.47789
"200",200,65,"95-1096","Alaoki","HI",96789,3,4,"Mountain",2,1997,13600,5,2516,2014-11-26,1020000,998000,-158.0003649,21.479148
"201",201,65,"95-211","Hoahiahi","HI",96789,3,3,"Mountain,Sunset",2,2000,6702,5,2453,2014-12-19,1050000,1150000,-157.9915509,21.483558
"202",202,65,"95-1058","Kahakuhi","HI",96789,3,4,"City,Garden,Mountain",2,2005,7642,4,2816,2013-09-24,1058000,1088000,-157.979996,21.479297
"203",203,65,"95-309","Alaoki","HI",96789,3,4,"Coastline,Mountain,Ocean,Sunset",2,1997,7551,5,2516,2014-11-21,1140000,1225000,-158.002911,21.479464
"204",204,65,"95-232","Anuanu","HI",96789,4,4,"Garden,Mountain",2,2001,10350,5,2907,2014-02-21,1145000,1150000,-157.986729,21.484206
"205",205,65,"95-226","KAPANOE","HI",96789,3,5,"Other",2,2004,6041,5,2796,2014-02-21,1165000,1165000,-157.98025,21.484017
"206",206,65,"95-250","Kapanoe","HI",96789,4,5,"Garden,Mountain",2,2004,6525,5,3201,2014-06-23,1198000,1175000,-157.979096,21.483839
"207",207,65,"95-1000","Kapanoe","HI",96789,3,3,"Garden",2,2004,6492,4,2760,2014-11-03,1200000,1200000,-157.981287,21.484349
"208",208,65,"95-1010","Melekomo","HI",96789,4,4,"Garden,Mountain",2,2006,8427,5,3516,2014-01-24,1220000,1300000,-158.013888,21.475132
"209",209,65,"95-1051","Hehina","HI",96789,4,4,"City,Mountain,Ocean,Sunset",2,2005,6995,5,2808,2014-05-23,1250000,1350000,-157.979679,21.47731
"210",210,65,"95-218","Haunone","HI",96789,4,4,"Garden,Other",2,2005,10080,5,3516,2014-02-21,1265000,1245000,-157.978405,21.477757
